[
    {
        "name_en": "Channel Islands",
        "iso2": "GB-CI",
        "iso3": "GBR-CIL",
        "uid": 8261,
        "population": 170499,
        "lat": 49.3723,
        "long": -2.3644,
        "country": "Channel Islands",
        "wom_map": "Channel Islands"
    },
    {
        "name_en": "Kosovo",
        "iso2": "XK",
        "iso3": "XKX",
        "uid": 383,
        "population": 1810366,
        "lat": 42.602636,
        "long": 20.902977,
        "country": "Kosovo",
        "wom_map": "Kosovo"
    },
    {
        "name_en": "Afghanistan",
        "iso2": "af",
        "iso3": "afg",
        "uid": 4,
        "population": 38928341,
        "lat": 33.93911,
        "long": 67.709953,
        "country": "Afghanistan",
        "wom_map": "Afghanistan"
    },
    {
        "name_en": "Åland Islands",
        "iso2": "ax",
        "iso3": "ala",
        "uid": 248,
        "population": 0,
        "lat": 0,
        "long": 0,
        "country": "",
        "wom_map": ""
    },
    {
        "name_en": "Albania",
        "iso2": "al",
        "iso3": "alb",
        "uid": 8,
        "population": 2877800,
        "lat": 41.1533,
        "long": 20.1683,
        "country": "Albania",
        "wom_map": "Albania"
    },
    {
        "name_en": "Algeria",
        "iso2": "dz",
        "iso3": "dza",
        "uid": 12,
        "population": 43851043,
        "lat": 28.0339,
        "long": 1.6596,
        "country": "Algeria",
        "wom_map": "Algeria"
    },
    {
        "name_en": "American Samoa",
        "iso2": "as",
        "iso3": "asm",
        "uid": 16,
        "population": 55641,
        "lat": -14.271,
        "long": -170.132,
        "country": "American Samoa",
        "wom_map": ""
    },
    {
        "name_en": "Andorra",
        "iso2": "ad",
        "iso3": "and",
        "uid": 20,
        "population": 77265,
        "lat": 42.5063,
        "long": 1.5218,
        "country": "Andorra",
        "wom_map": "Andorra"
    },
    {
        "name_en": "Angola",
        "iso2": "ao",
        "iso3": "ago",
        "uid": 24,
        "population": 32866268,
        "lat": -11.2027,
        "long": 17.8739,
        "country": "Angola",
        "wom_map": "Angola"
    },
    {
        "name_en": "Anguilla",
        "iso2": "ai",
        "iso3": "aia",
        "uid": 660,
        "population": 15002,
        "lat": 18.2206,
        "long": -63.0686,
        "country": "Anguilla",
        "wom_map": "Anguilla"
    },
    {
        "name_en": "Antarctica",
        "iso2": "aq",
        "iso3": "ata",
        "uid": 10,
        "population": 0,
        "lat": 0,
        "long": 0,
        "country": "",
        "wom_map": ""
    },
    {
        "name_en": "Antigua and Barbuda",
        "iso2": "ag",
        "iso3": "atg",
        "uid": 28,
        "population": 97928,
        "lat": 17.0608,
        "long": -61.7964,
        "country": "Antigua and Barbuda",
        "wom_map": "Antigua and Barbuda"
    },
    {
        "name_en": "Argentina",
        "iso2": "ar",
        "iso3": "arg",
        "uid": 32,
        "population": 45195777,
        "lat": -38.4161,
        "long": -63.6167,
        "country": "Argentina",
        "wom_map": "Argentina"
    },
    {
        "name_en": "Armenia",
        "iso2": "am",
        "iso3": "arm",
        "uid": 51,
        "population": 2963234,
        "lat": 40.0691,
        "long": 45.0382,
        "country": "Armenia",
        "wom_map": "Armenia"
    },
    {
        "name_en": "Aruba",
        "iso2": "aw",
        "iso3": "abw",
        "uid": 533,
        "population": 106766,
        "lat": 12.5211,
        "long": -69.9683,
        "country": "Aruba",
        "wom_map": "Aruba"
    },
    {
        "name_en": "Australia",
        "iso2": "au",
        "iso3": "aus",
        "uid": 36,
        "population": 25459700,
        "lat": -25,
        "long": 133,
        "country": "Australia",
        "wom_map": "Australia"
    },
    {
        "name_en": "Austria",
        "iso2": "at",
        "iso3": "aut",
        "uid": 40,
        "population": 9006400,
        "lat": 47.5162,
        "long": 14.5501,
        "country": "Austria",
        "wom_map": "Austria"
    },
    {
        "name_en": "Azerbaijan",
        "iso2": "az",
        "iso3": "aze",
        "uid": 31,
        "population": 10139175,
        "lat": 40.1431,
        "long": 47.5769,
        "country": "Azerbaijan",
        "wom_map": "Azerbaijan"
    },
    {
        "name_en": "Bahamas",
        "iso2": "bs",
        "iso3": "bhs",
        "uid": 44,
        "population": 393248,
        "lat": 25.025885,
        "long": -78.035889,
        "country": "Bahamas",
        "wom_map": "Bahamas"
    },
    {
        "name_en": "Bahrain",
        "iso2": "bh",
        "iso3": "bhr",
        "uid": 48,
        "population": 1701583,
        "lat": 26.0275,
        "long": 50.55,
        "country": "Bahrain",
        "wom_map": "Bahrain"
    },
    {
        "name_en": "Bangladesh",
        "iso2": "bd",
        "iso3": "bgd",
        "uid": 50,
        "population": 164689383,
        "lat": 23.685,
        "long": 90.3563,
        "country": "Bangladesh",
        "wom_map": "Bangladesh"
    },
    {
        "name_en": "Barbados",
        "iso2": "bb",
        "iso3": "brb",
        "uid": 52,
        "population": 287371,
        "lat": 13.1939,
        "long": -59.5432,
        "country": "Barbados",
        "wom_map": "Barbados"
    },
    {
        "name_en": "Belarus",
        "iso2": "by",
        "iso3": "blr",
        "uid": 112,
        "population": 9449321,
        "lat": 53.7098,
        "long": 27.9534,
        "country": "Belarus",
        "wom_map": "Belarus"
    },
    {
        "name_en": "Belgium",
        "iso2": "be",
        "iso3": "bel",
        "uid": 56,
        "population": 11589616,
        "lat": 50.8333,
        "long": 4.469936,
        "country": "Belgium",
        "wom_map": "Belgium"
    },
    {
        "name_en": "Belize",
        "iso2": "bz",
        "iso3": "blz",
        "uid": 84,
        "population": 397621,
        "lat": 17.1899,
        "long": -88.4976,
        "country": "Belize",
        "wom_map": "Belize"
    },
    {
        "name_en": "Benin",
        "iso2": "bj",
        "iso3": "ben",
        "uid": 204,
        "population": 12123198,
        "lat": 9.3077,
        "long": 2.3158,
        "country": "Benin",
        "wom_map": "Benin"
    },
    {
        "name_en": "Bermuda",
        "iso2": "bm",
        "iso3": "bmu",
        "uid": 60,
        "population": 62273,
        "lat": 32.3078,
        "long": -64.7505,
        "country": "Bermuda",
        "wom_map": "Bermuda"
    },
    {
        "name_en": "Bhutan",
        "iso2": "bt",
        "iso3": "btn",
        "uid": 64,
        "population": 771612,
        "lat": 27.5142,
        "long": 90.4336,
        "country": "Bhutan",
        "wom_map": "Bhutan"
    },
    {
        "name_en": "Bolivia (Plurinational State of)",
        "iso2": "bo",
        "iso3": "bol",
        "uid": 68,
        "population": 11673029,
        "lat": -16.2902,
        "long": -63.5887,
        "country": "Bolivia",
        "wom_map": "Bolivia"
    },
    {
        "name_en": "Bonaire, Sint Eustatius and Saba",
        "iso2": "bq",
        "iso3": "bes",
        "uid": 535,
        "population": 26221,
        "lat": 12.1784,
        "long": -68.2385,
        "country": "Bonaire, Sint Eustatius and Saba",
        "wom_map": "Caribbean Netherlands"
    },
    {
        "name_en": "Bosnia and Herzegovina",
        "iso2": "ba",
        "iso3": "bih",
        "uid": 70,
        "population": 3280815,
        "lat": 43.9159,
        "long": 17.6791,
        "country": "Bosnia and Herzegovina",
        "wom_map": "Bosnia and Herzegovina"
    },
    {
        "name_en": "Botswana",
        "iso2": "bw",
        "iso3": "bwa",
        "uid": 72,
        "population": 2351625,
        "lat": -22.3285,
        "long": 24.6849,
        "country": "Botswana",
        "wom_map": "Botswana"
    },
    {
        "name_en": "Bouvet Island",
        "iso2": "bv",
        "iso3": "bvt",
        "uid": 74,
        "population": 0,
        "lat": 0,
        "long": 0,
        "country": "",
        "wom_map": ""
    },
    {
        "name_en": "Brazil",
        "iso2": "br",
        "iso3": "bra",
        "uid": 76,
        "population": 212559409,
        "lat": -14.235,
        "long": -51.9253,
        "country": "Brazil",
        "wom_map": "Brazil"
    },
    {
        "name_en": "British Indian Ocean Territory",
        "iso2": "io",
        "iso3": "iot",
        "uid": 86,
        "population": 0,
        "lat": 0,
        "long": 0,
        "country": "",
        "wom_map": ""
    },
    {
        "name_en": "Brunei Darussalam",
        "iso2": "bn",
        "iso3": "brn",
        "uid": 96,
        "population": 437483,
        "lat": 4.5353,
        "long": 114.7277,
        "country": "Brunei",
        "wom_map": "Brunei"
    },
    {
        "name_en": "Bulgaria",
        "iso2": "bg",
        "iso3": "bgr",
        "uid": 100,
        "population": 6948445,
        "lat": 42.7339,
        "long": 25.4858,
        "country": "Bulgaria",
        "wom_map": "Bulgaria"
    },
    {
        "name_en": "Burkina Faso",
        "iso2": "bf",
        "iso3": "bfa",
        "uid": 854,
        "population": 20903278,
        "lat": 12.2383,
        "long": -1.5616,
        "country": "Burkina Faso",
        "wom_map": "Burkina Faso"
    },
    {
        "name_en": "Burundi",
        "iso2": "bi",
        "iso3": "bdi",
        "uid": 108,
        "population": 11890781,
        "lat": -3.3731,
        "long": 29.9189,
        "country": "Burundi",
        "wom_map": "Burundi"
    },
    {
        "name_en": "Cabo Verde",
        "iso2": "cv",
        "iso3": "cpv",
        "uid": 132,
        "population": 555988,
        "lat": 16.5388,
        "long": -23.0418,
        "country": "Cabo Verde",
        "wom_map": "Cabo Verde"
    },
    {
        "name_en": "Cambodia",
        "iso2": "kh",
        "iso3": "khm",
        "uid": 116,
        "population": 16718971,
        "lat": 11.55,
        "long": 104.9167,
        "country": "Cambodia",
        "wom_map": "Cambodia"
    },
    {
        "name_en": "Cameroon",
        "iso2": "cm",
        "iso3": "cmr",
        "uid": 120,
        "population": 26545864,
        "lat": 3.848,
        "long": 11.5021,
        "country": "Cameroon",
        "wom_map": "Cameroon"
    },
    {
        "name_en": "Canada",
        "iso2": "ca",
        "iso3": "can",
        "uid": 124,
        "population": 37855702,
        "lat": 60,
        "long": -95,
        "country": "Canada",
        "wom_map": "Canada"
    },
    {
        "name_en": "Cayman Islands",
        "iso2": "ky",
        "iso3": "cym",
        "uid": 136,
        "population": 65720,
        "lat": 19.3133,
        "long": -81.2546,
        "country": "Cayman Islands",
        "wom_map": "Cayman Islands"
    },
    {
        "name_en": "Central African Republic",
        "iso2": "cf",
        "iso3": "caf",
        "uid": 140,
        "population": 4829764,
        "lat": 6.6111,
        "long": 20.9394,
        "country": "Central African Republic",
        "wom_map": "CAR"
    },
    {
        "name_en": "Chad",
        "iso2": "td",
        "iso3": "tcd",
        "uid": 148,
        "population": 16425859,
        "lat": 15.4542,
        "long": 18.7322,
        "country": "Chad",
        "wom_map": "Chad"
    },
    {
        "name_en": "Chile",
        "iso2": "cl",
        "iso3": "chl",
        "uid": 152,
        "population": 19116209,
        "lat": -35.6751,
        "long": -71.543,
        "country": "Chile",
        "wom_map": "Chile"
    },
    {
        "name_en": "China",
        "iso2": "cn",
        "iso3": "chn",
        "uid": 156,
        "population": 1404676330,
        "lat": 30.5928,
        "long": 114.3055,
        "country": "China",
        "wom_map": "China"
    },
    {
        "name_en": "Christmas Island",
        "iso2": "cx",
        "iso3": "cxr",
        "uid": 162,
        "population": 0,
        "lat": 0,
        "long": 0,
        "country": "",
        "wom_map": ""
    },
    {
        "name_en": "Cocos (Keeling) Islands",
        "iso2": "cc",
        "iso3": "cck",
        "uid": 166,
        "population": 0,
        "lat": 0,
        "long": 0,
        "country": "",
        "wom_map": ""
    },
    {
        "name_en": "Colombia",
        "iso2": "co",
        "iso3": "col",
        "uid": 170,
        "population": 50882884,
        "lat": 4.5709,
        "long": -74.2973,
        "country": "Colombia",
        "wom_map": "Colombia"
    },
    {
        "name_en": "Comoros",
        "iso2": "km",
        "iso3": "com",
        "uid": 174,
        "population": 869595,
        "lat": -11.6455,
        "long": 43.3333,
        "country": "Comoros",
        "wom_map": "Comoros"
    },
    {
        "name_en": "Congo",
        "iso2": "cg",
        "iso3": "cog",
        "uid": 178,
        "population": 5518092,
        "lat": -0.228,
        "long": 15.8277,
        "country": "Congo (Brazzaville)",
        "wom_map": "Congo"
    },
    {
        "name_en": "Congo, Democratic Republic of the",
        "iso2": "cd",
        "iso3": "cod",
        "uid": 180,
        "population": 89561404,
        "lat": -4.0383,
        "long": 21.7587,
        "country": "Congo (Kinshasa)",
        "wom_map": "DRC"
    },
    {
        "name_en": "Cook Islands",
        "iso2": "ck",
        "iso3": "cok",
        "uid": 184,
        "population": 0,
        "lat": 0,
        "long": 0,
        "country": "",
        "wom_map": ""
    },
    {
        "name_en": "Costa Rica",
        "iso2": "cr",
        "iso3": "cri",
        "uid": 188,
        "population": 5094114,
        "lat": 9.7489,
        "long": -83.7534,
        "country": "Costa Rica",
        "wom_map": "Costa Rica"
    },
    {
        "name_en": "Côte d'Ivoire",
        "iso2": "ci",
        "iso3": "civ",
        "uid": 384,
        "population": 26378275,
        "lat": 7.54,
        "long": -5.5471,
        "country": "Cote d'Ivoire",
        "wom_map": "Ivory Coast"
    },
    {
        "name_en": "Croatia",
        "iso2": "hr",
        "iso3": "hrv",
        "uid": 191,
        "population": 4105268,
        "lat": 45.1,
        "long": 15.2,
        "country": "Croatia",
        "wom_map": "Croatia"
    },
    {
        "name_en": "Cuba",
        "iso2": "cu",
        "iso3": "cub",
        "uid": 192,
        "population": 11326616,
        "lat": 21.521757,
        "long": -77.781167,
        "country": "Cuba",
        "wom_map": "Cuba"
    },
    {
        "name_en": "Curaçao",
        "iso2": "cw",
        "iso3": "cuw",
        "uid": 531,
        "population": 164100,
        "lat": 12.1696,
        "long": -68.99,
        "country": "Curacao",
        "wom_map": "Curaçao"
    },
    {
        "name_en": "Cyprus",
        "iso2": "cy",
        "iso3": "cyp",
        "uid": 196,
        "population": 1207361,
        "lat": 35.1264,
        "long": 33.4299,
        "country": "Cyprus",
        "wom_map": "Cyprus"
    },
    {
        "name_en": "Czechia",
        "iso2": "cz",
        "iso3": "cze",
        "uid": 203,
        "population": 10708982,
        "lat": 49.8175,
        "long": 15.473,
        "country": "Czechia",
        "wom_map": "Czechia"
    },
    {
        "name_en": "Denmark",
        "iso2": "dk",
        "iso3": "dnk",
        "uid": 208,
        "population": 5792203,
        "lat": 56.2639,
        "long": 9.5018,
        "country": "Denmark",
        "wom_map": "Denmark"
    },
    {
        "name_en": "Djibouti",
        "iso2": "dj",
        "iso3": "dji",
        "uid": 262,
        "population": 988002,
        "lat": 11.8251,
        "long": 42.5903,
        "country": "Djibouti",
        "wom_map": "Djibouti"
    },
    {
        "name_en": "Dominica",
        "iso2": "dm",
        "iso3": "dma",
        "uid": 212,
        "population": 71991,
        "lat": 15.415,
        "long": -61.371,
        "country": "Dominica",
        "wom_map": "Dominica"
    },
    {
        "name_en": "Dominican Republic",
        "iso2": "do",
        "iso3": "dom",
        "uid": 214,
        "population": 10847904,
        "lat": 18.7357,
        "long": -70.1627,
        "country": "Dominican Republic",
        "wom_map": "Dominican Republic"
    },
    {
        "name_en": "Ecuador",
        "iso2": "ec",
        "iso3": "ecu",
        "uid": 218,
        "population": 17643060,
        "lat": -1.8312,
        "long": -78.1834,
        "country": "Ecuador",
        "wom_map": "Ecuador"
    },
    {
        "name_en": "Egypt",
        "iso2": "eg",
        "iso3": "egy",
        "uid": 818,
        "population": 102334403,
        "lat": 26.820553,
        "long": 30.802498,
        "country": "Egypt",
        "wom_map": "Egypt"
    },
    {
        "name_en": "El Salvador",
        "iso2": "sv",
        "iso3": "slv",
        "uid": 222,
        "population": 6486201,
        "lat": 13.7942,
        "long": -88.8965,
        "country": "El Salvador",
        "wom_map": "El Salvador"
    },
    {
        "name_en": "Equatorial Guinea",
        "iso2": "gq",
        "iso3": "gnq",
        "uid": 226,
        "population": 1402985,
        "lat": 1.6508,
        "long": 10.2679,
        "country": "Equatorial Guinea",
        "wom_map": "Equatorial Guinea"
    },
    {
        "name_en": "Eritrea",
        "iso2": "er",
        "iso3": "eri",
        "uid": 232,
        "population": 3546427,
        "lat": 15.1794,
        "long": 39.7823,
        "country": "Eritrea",
        "wom_map": "Eritrea"
    },
    {
        "name_en": "Estonia",
        "iso2": "ee",
        "iso3": "est",
        "uid": 233,
        "population": 1326539,
        "lat": 58.5953,
        "long": 25.0136,
        "country": "Estonia",
        "wom_map": "Estonia"
    },
    {
        "name_en": "Eswatini",
        "iso2": "sz",
        "iso3": "swz",
        "uid": 748,
        "population": 1160164,
        "lat": -26.5225,
        "long": 31.4659,
        "country": "Eswatini",
        "wom_map": "Eswatini"
    },
    {
        "name_en": "Ethiopia",
        "iso2": "et",
        "iso3": "eth",
        "uid": 231,
        "population": 114963583,
        "lat": 9.145,
        "long": 40.4897,
        "country": "Ethiopia",
        "wom_map": "Ethiopia"
    },
    {
        "name_en": "Falkland Islands (Malvinas)",
        "iso2": "fk",
        "iso3": "flk",
        "uid": 238,
        "population": 3483,
        "lat": -51.7963,
        "long": -59.5236,
        "country": "Falkland Islands (Malvinas)",
        "wom_map": "Falkland Islands"
    },
    {
        "name_en": "Faroe Islands",
        "iso2": "fo",
        "iso3": "fro",
        "uid": 234,
        "population": 48865,
        "lat": 61.8926,
        "long": -6.9118,
        "country": "Faroe Islands",
        "wom_map": "Faeroe Islands"
    },
    {
        "name_en": "Fiji",
        "iso2": "fj",
        "iso3": "fji",
        "uid": 242,
        "population": 896444,
        "lat": -17.7134,
        "long": 178.065,
        "country": "Fiji",
        "wom_map": "Fiji"
    },
    {
        "name_en": "Finland",
        "iso2": "fi",
        "iso3": "fin",
        "uid": 246,
        "population": 5540718,
        "lat": 61.92411,
        "long": 25.748151,
        "country": "Finland",
        "wom_map": "Finland"
    },
    {
        "name_en": "France",
        "iso2": "fr",
        "iso3": "fra",
        "uid": 250,
        "population": 65273512,
        "lat": 46.2276,
        "long": 2.2137,
        "country": "France",
        "wom_map": "France"
    },
    {
        "name_en": "French Guiana",
        "iso2": "gf",
        "iso3": "guf",
        "uid": 254,
        "population": 298682,
        "lat": 4,
        "long": -53,
        "country": "French Guiana",
        "wom_map": "French Guiana"
    },
    {
        "name_en": "French Polynesia",
        "iso2": "pf",
        "iso3": "pyf",
        "uid": 258,
        "population": 280904,
        "lat": -17.6797,
        "long": -149.4068,
        "country": "French Polynesia",
        "wom_map": "French Polynesia"
    },
    {
        "name_en": "French Southern Territories",
        "iso2": "tf",
        "iso3": "atf",
        "uid": 260,
        "population": 0,
        "lat": 0,
        "long": 0,
        "country": "",
        "wom_map": ""
    },
    {
        "name_en": "Gabon",
        "iso2": "ga",
        "iso3": "gab",
        "uid": 266,
        "population": 2225728,
        "lat": -0.8037,
        "long": 11.6094,
        "country": "Gabon",
        "wom_map": "Gabon"
    },
    {
        "name_en": "Gambia",
        "iso2": "gm",
        "iso3": "gmb",
        "uid": 270,
        "population": 2416664,
        "lat": 13.4432,
        "long": -15.3101,
        "country": "Gambia",
        "wom_map": "Gambia"
    },
    {
        "name_en": "Georgia",
        "iso2": "ge",
        "iso3": "geo",
        "uid": 268,
        "population": 3989175,
        "lat": 42.3154,
        "long": 43.3569,
        "country": "Georgia",
        "wom_map": "Georgia"
    },
    {
        "name_en": "Germany",
        "iso2": "de",
        "iso3": "deu",
        "uid": 276,
        "population": 83783945,
        "lat": 51.165691,
        "long": 10.451526,
        "country": "Germany",
        "wom_map": "Germany"
    },
    {
        "name_en": "Ghana",
        "iso2": "gh",
        "iso3": "gha",
        "uid": 288,
        "population": 31072945,
        "lat": 7.9465,
        "long": -1.0232,
        "country": "Ghana",
        "wom_map": "Ghana"
    },
    {
        "name_en": "Gibraltar",
        "iso2": "gi",
        "iso3": "gib",
        "uid": 292,
        "population": 33691,
        "lat": 36.1408,
        "long": -5.3536,
        "country": "Gibraltar",
        "wom_map": "Gibraltar"
    },
    {
        "name_en": "Greece",
        "iso2": "gr",
        "iso3": "grc",
        "uid": 300,
        "population": 10423056,
        "lat": 39.0742,
        "long": 21.8243,
        "country": "Greece",
        "wom_map": "Greece"
    },
    {
        "name_en": "Greenland",
        "iso2": "gl",
        "iso3": "grl",
        "uid": 304,
        "population": 56772,
        "lat": 71.7069,
        "long": -42.6043,
        "country": "Greenland",
        "wom_map": "Greenland"
    },
    {
        "name_en": "Grenada",
        "iso2": "gd",
        "iso3": "grd",
        "uid": 308,
        "population": 112519,
        "lat": 12.1165,
        "long": -61.679,
        "country": "Grenada",
        "wom_map": "Grenada"
    },
    {
        "name_en": "Guadeloupe",
        "iso2": "gp",
        "iso3": "glp",
        "uid": 312,
        "population": 400127,
        "lat": 16.265,
        "long": -61.551,
        "country": "Guadeloupe",
        "wom_map": "Guadeloupe"
    },
    {
        "name_en": "Guam",
        "iso2": "gu",
        "iso3": "gum",
        "uid": 316,
        "population": 164229,
        "lat": 13.4443,
        "long": 144.7937,
        "country": "Guam",
        "wom_map": ""
    },
    {
        "name_en": "Guatemala",
        "iso2": "gt",
        "iso3": "gtm",
        "uid": 320,
        "population": 17915567,
        "lat": 15.7835,
        "long": -90.2308,
        "country": "Guatemala",
        "wom_map": "Guatemala"
    },
    {
        "name_en": "Guernsey",
        "iso2": "gg",
        "iso3": "ggy",
        "uid": 831,
        "population": 0,
        "lat": 0,
        "long": 0,
        "country": "",
        "wom_map": ""
    },
    {
        "name_en": "Guinea",
        "iso2": "gn",
        "iso3": "gin",
        "uid": 324,
        "population": 13132792,
        "lat": 9.9456,
        "long": -9.6966,
        "country": "Guinea",
        "wom_map": "Guinea"
    },
    {
        "name_en": "Guinea-Bissau",
        "iso2": "gw",
        "iso3": "gnb",
        "uid": 624,
        "population": 1967998,
        "lat": 11.8037,
        "long": -15.1804,
        "country": "Guinea-Bissau",
        "wom_map": "Guinea-Bissau"
    },
    {
        "name_en": "Guyana",
        "iso2": "gy",
        "iso3": "guy",
        "uid": 328,
        "population": 786559,
        "lat": 4.860416,
        "long": -58.93018,
        "country": "Guyana",
        "wom_map": "Guyana"
    },
    {
        "name_en": "Haiti",
        "iso2": "ht",
        "iso3": "hti",
        "uid": 332,
        "population": 11402533,
        "lat": 18.9712,
        "long": -72.2852,
        "country": "Haiti",
        "wom_map": "Haiti"
    },
    {
        "name_en": "Heard Island and McDonald Islands",
        "iso2": "hm",
        "iso3": "hmd",
        "uid": 334,
        "population": 0,
        "lat": 0,
        "long": 0,
        "country": "",
        "wom_map": ""
    },
    {
        "name_en": "Holy See",
        "iso2": "va",
        "iso3": "vat",
        "uid": 336,
        "population": 809,
        "lat": 41.9029,
        "long": 12.4534,
        "country": "Holy See",
        "wom_map": "Vatican City"
    },
    {
        "name_en": "Honduras",
        "iso2": "hn",
        "iso3": "hnd",
        "uid": 340,
        "population": 9904608,
        "lat": 15.2,
        "long": -86.2419,
        "country": "Honduras",
        "wom_map": "Honduras"
    },
    {
        "name_en": "Hong Kong",
        "iso2": "hk",
        "iso3": "hkg",
        "uid": 344,
        "population": 7496988,
        "lat": 22.3,
        "long": 114.2,
        "country": "Hong Kong",
        "wom_map": "Hong Kong"
    },
    {
        "name_en": "Hungary",
        "iso2": "hu",
        "iso3": "hun",
        "uid": 348,
        "population": 9660350,
        "lat": 47.1625,
        "long": 19.5033,
        "country": "Hungary",
        "wom_map": "Hungary"
    },
    {
        "name_en": "Iceland",
        "iso2": "is",
        "iso3": "isl",
        "uid": 352,
        "population": 341250,
        "lat": 64.9631,
        "long": -19.0208,
        "country": "Iceland",
        "wom_map": "Iceland"
    },
    {
        "name_en": "India",
        "iso2": "in",
        "iso3": "ind",
        "uid": 356,
        "population": 1380004385,
        "lat": 20.593684,
        "long": 78.96288,
        "country": "India",
        "wom_map": "India"
    },
    {
        "name_en": "Indonesia",
        "iso2": "id",
        "iso3": "idn",
        "uid": 360,
        "population": 273523621,
        "lat": -0.7893,
        "long": 113.9213,
        "country": "Indonesia",
        "wom_map": "Indonesia"
    },
    {
        "name_en": "Iran (Islamic Republic of)",
        "iso2": "ir",
        "iso3": "irn",
        "uid": 364,
        "population": 83992953,
        "lat": 32.427908,
        "long": 53.688046,
        "country": "Iran",
        "wom_map": "Iran"
    },
    {
        "name_en": "Iraq",
        "iso2": "iq",
        "iso3": "irq",
        "uid": 368,
        "population": 40222503,
        "lat": 33.223191,
        "long": 43.679291,
        "country": "Iraq",
        "wom_map": "Iraq"
    },
    {
        "name_en": "Ireland",
        "iso2": "ie",
        "iso3": "irl",
        "uid": 372,
        "population": 4937796,
        "lat": 53.1424,
        "long": -7.6921,
        "country": "Ireland",
        "wom_map": "Ireland"
    },
    {
        "name_en": "Isle of Man",
        "iso2": "im",
        "iso3": "imn",
        "uid": 833,
        "population": 85032,
        "lat": 54.2361,
        "long": -4.5481,
        "country": "Isle of Man",
        "wom_map": "Isle of Man"
    },
    {
        "name_en": "Israel",
        "iso2": "il",
        "iso3": "isr",
        "uid": 376,
        "population": 8655541,
        "lat": 31.046051,
        "long": 34.851612,
        "country": "Israel",
        "wom_map": "Israel"
    },
    {
        "name_en": "Italy",
        "name_el": "Ιταλία",
        "iso2": "it",
        "iso3": "ita",
        "uid": 380,
        "population": 60461828,
        "lat": 41.87194,
        "long": 12.56738,
        "country": "Italy",
        "wom_map": "Italy"
    },
    {
        "name_en": "Jamaica",
        "name_el": "Τζαμάικα",
        "iso2": "jm",
        "iso3": "jam",
        "uid": 388,
        "population": 2961161,
        "lat": 18.1096,
        "long": -77.2975,
        "country": "Jamaica",
        "wom_map": "Jamaica"
    },
    {
        "name_en": "Japan",
        "name_el": "Ιαπωνία",
        "iso2": "jp",
        "iso3": "jpn",
        "uid": 392,
        "population": 126476458,
        "lat": 36.204824,
        "long": 138.252924,
        "country": "Japan",
        "wom_map": "Japan"
    },
    {
        "name_en": "Jordan",
        "name_el": "Ιορδανία",
        "iso2": "jo",
        "iso3": "jor",
        "uid": 400,
        "population": 10203140,
        "lat": 31.24,
        "long": 36.51,
        "country": "Jordan",
    },
    {
        "name_en": "Kazakhstan",
        "iso2": "kz",
        "iso3": "kaz",
        "population": 18776707,
        "lat": 48.0196,
        "long": 66.9237,
        "country": "Kazakhstan",
    },
    {
        "name_en": "Kenya",
        "iso2": "ke",
        "iso3": "ken",
        "population": 53771300,
        "lat": -0.0236,
        "long": 37.9062,
        "country": "Kenya",
    },
    {
        "name_en": "Kiribati",
        "name_el": "Κιριμπάτι",
        "iso2": "ki",
        "iso3": "kir",
        "uid": 296,
        "population": 0,
        "lat": 0,
        "long": 0,
        "country": "Kiribati",
    },
    {
        "name_en": "Korea (Democratic People's Republic of)",
        "name_el": "Βόρεια Κορέα",
        "iso2": "kp",
        "iso3": "prk",
        "uid": 408,
        "population": 0,
        "lat": 0,
        "long": 0,
        "country": "North Korea",
        "wom_map": ""
    },
    {
        "name_en": "Korea, Republic of",
        "name_el": "Νότια Κορέα",
        "iso2": "kr",
        "iso3": "kor",
        "uid": 410,
        "population": 51269183,
        "lat": 35.907757,
        "long": 127.766922,
        "country": "South Korea",
        "wom_map": "S. Korea"
    },
    {
        "name_en": "Kuwait",
        "name_el": "Κουβέιτ",
        "iso2": "kw",
        "iso3": "kwt",
        "uid": 414,
        "population": 4270563,
        "lat": 29.31166,
        "long": 47.481766,
        "country": "Kuwait",
        "wom_map": "Kuwait"
    },
    {
        "name_en": "Kyrgyzstan",
        "name_el": "Κιργιζία",
        "iso2": "kg",
        "iso3": "kgz",
        "uid": 417,
        "population": 6524191,
        "lat": 41.20438,
        "long": 74.766098,
        "country": "Kyrgyzstan",
        "wom_map": "Kyrgyzstan"
    },
    {
        "name_en": "Lao People's Democratic Republic",
        "name_el": "Λάος",
        "iso2": "la",
        "iso3": "lao",
        "uid": 418,
        "population": 7275556,
        "lat": 19.85627,
        "long": 102.495496,
        "country": "Laos",
        "wom_map": "Laos"
    },
    {
        "name_en": "Latvia",
        "name_el": "Λεττονία",
        "iso2": "lv",
        "iso3": "lva",
        "uid": 428,
        "population": 1886202,
        "lat": 56.8796,
        "long": 24.6032,
        "country": "Latvia",
        "wom_map": "Latvia"
    },
    {
        "name_en": "Lebanon",
        "name_el": "Λίβανος",
        "iso2": "lb",
        "iso3": "lbn",
        "uid": 422,
        "population": 6825442,
        "lat": 33.8547,
        "long": 35.8623,
        "country": "Lebanon",
        "wom_map": "Lebanon"
    },
    {
        "name_en": "Lesotho",
        "name_el": "Λεσότο",
        "iso2": "ls",
        "iso3": "lso",
        "uid": 426,
        "population": 2142252,
        "lat": -29.61,
        "long": 28.2336,
        "country": "Lesotho",
        "wom_map": "Lesotho"
    },
    {
        "name_en": "Liberia",
        "name_el": "Λιβερία",
        "iso2": "lr",
        "iso3": "lbr",
        "uid": 430,
        "population": 5057677,
        "lat": 6.428055,
        "long": -9.429499,
        "country": "Liberia",
        "wom_map": "Liberia"
    },
    {
        "name_en": "Libya",
        "name_el": "Λιβύη",
        "iso2": "ly",
        "iso3": "lby",
        "uid": 434,
        "population": 6871287,
        "lat": 26.3351,
        "long": 17.228331,
        "country": "Libya",
        "wom_map": "Libya"
    },
    {
        "name_en": "Liechtenstein",
        "name_el": "Λίχτενσταϊν",
        "iso2": "li",
        "iso3": "lie",
        "uid": 438,
        "population": 38137,
        "lat": 47.14,
        "long": 9.55,
        "country": "Liechtenstein",
        "wom_map": "Liechtenstein"
    },
    {
        "name_en": "Lithuania",
        "name_el": "Λιθουανία",
        "iso2": "lt",
        "iso3": "ltu",
        "uid": 440,
        "population": 2722291,
        "lat": 55.1694,
        "long": 23.8813,
        "country": "Lithuania",
        "wom_map": "Lithuania"
    },
    {
        "name_en": "Luxembourg",
        "name_el": "Λουξεμβούργο",
        "iso2": "lu",
        "iso3": "lux",
        "uid": 442,
        "population": 625976,
        "lat": 49.8153,
        "long": 6.1296,
        "country": "Luxembourg",
        "wom_map": "Luxembourg"
    },
    {
        "name_en": "Macao",
        "name_el": "Μακάο",
        "iso2": "mo",
        "iso3": "mac",
        "uid": 446,
        "population": 649342,
        "lat": 22.1667,
        "long": 113.55,
        "country": "Macau",
        "wom_map": "Macao"
    },
    {
        "name_en": "Madagascar",
        "name_el": "Μαδαγασκάρη",
        "iso2": "mg",
        "iso3": "mdg",
        "uid": 450,
        "population": 27691019,
        "lat": -18.766947,
        "long": 46.869107,
        "country": "Madagascar",
        "wom_map": "Madagascar"
    },
    {
        "name_en": "Malawi",
        "name_el": "Μαλάουι",
        "iso2": "mw",
        "iso3": "mwi",
        "uid": 454,
        "population": 19129955,
        "lat": -13.2543,
        "long": 34.3015,
        "country": "Malawi",
        "wom_map": "Malawi"
    },
    {
        "name_en": "Malaysia",
        "name_el": "Μαλαισία",
        "iso2": "my",
        "iso3": "mys",
        "uid": 458,
        "population": 32365998,
        "lat": 4.210484,
        "long": 101.975766,
        "country": "Malaysia",
        "wom_map": "Malaysia"
    },
    {
        "name_en": "Maldives",
        "name_el": "Μαλδίβες",
        "iso2": "mv",
        "iso3": "mdv",
        "uid": 462,
        "population": 540542,
        "lat": 3.2028,
        "long": 73.2207,
        "country": "Maldives",
        "wom_map": "Maldives"
    },
    {
        "name_en": "Mali",
        "name_el": "Μάλι",
        "iso2": "ml",
        "iso3": "mli",
        "uid": 466,
        "population": 20250834,
        "lat": 17.570692,
        "long": -3.996166,
        "country": "Mali",
        "wom_map": "Mali"
    },
    {
        "name_en": "Malta",
        "name_el": "Μάλτα",
        "iso2": "mt",
        "iso3": "mlt",
        "uid": 470,
        "population": 441539,
        "lat": 35.9375,
        "long": 14.3754,
        "country": "Malta",
        "wom_map": "Malta"
    },
    {
        "name_en": "Marshall Islands",
        "name_el": "Νήσοι Μάρσαλ",
        "iso2": "mh",
        "iso3": "mhl",
        "uid": 584,
        "population": 0,
        "lat": 0,
        "long": 0,
        "country": "",
        "wom_map": "Marshall Islands"
    },
    {
        "name_en": "Martinique",
        "name_el": "Μαρτινίκα",
        "iso2": "mq",
        "iso3": "mtq",
        "uid": 474,
        "population": 375265,
        "lat": 14.6415,
        "long": -61.0242,
        "country": "Martinique",
        "wom_map": "Martinique"
    },
    {
        "name_en": "Mauritania",
        "name_el": "Μαυριτανία",
        "iso2": "mr",
        "iso3": "mrt",
        "uid": 478,
        "population": 4649660,
        "lat": 21.0079,
        "long": -10.9408,
        "country": "Mauritania",
        "wom_map": "Mauritania"
    },
    {
        "name_en": "Mauritius",
        "name_el": "Μαυρίκιος",
        "iso2": "mu",
        "iso3": "mus",
        "uid": 480,
        "population": 1271767,
        "lat": -20.348404,
        "long": 57.552152,
        "country": "Mauritius",
        "wom_map": "Mauritius"
    },
    {
        "name_en": "Mayotte",
        "name_el": "Μαγιότ",
        "iso2": "yt",
        "iso3": "myt",
        "uid": 175,
        "population": 272813,
        "lat": -12.8275,
        "long": 45.166244,
        "country": "Mayotte",
        "wom_map": "Mayotte"
    },
    {
        "name_en": "Mexico",
        "name_el": "Μεξικό",
        "iso2": "mx",
        "iso3": "mex",
        "uid": 484,
        "population": 127792286,
        "lat": 23.6345,
        "long": -102.5528,
        "country": "Mexico",
        "wom_map": "Mexico"
    },
    {
        "name_en": "Micronesia (Federated States of)",
        "name_el": "Ομόσπονδες Πολιτείες της Μικρονησίας",
        "iso2": "fm",
        "iso3": "fsm",
        "uid": 583,
        "population": 0,
        "lat": 0,
        "long": 0,
        "country": "",
        "wom_map": ""
    },
    {
        "name_en": "Moldova, Republic of",
        "name_el": "Μολδαβία",
        "iso2": "md",
        "iso3": "mda",
        "uid": 498,
        "population": 4033963,
        "lat": 47.4116,
        "long": 28.3699,
        "country": "Moldova",
        "wom_map": "Moldova"
    },
    {
        "name_en": "Monaco",
        "name_el": "Μονακό",
        "iso2": "mc",
        "iso3": "mco",
        "uid": 492,
        "population": 39244,
        "lat": 43.7333,
        "long": 7.4167,
        "country": "Monaco",
        "wom_map": "Monaco"
    },
    {
        "name_en": "Mongolia",
        "name_el": "Μογγολία",
        "iso2": "mn",
        "iso3": "mng",
        "uid": 496,
        "population": 3278292,
        "lat": 46.8625,
        "long": 103.8467,
        "country": "Mongolia",
        "wom_map": "Mongolia"
    },
    {
        "name_en": "Montenegro",
        "name_el": "Μαυροβούνιο",
        "iso2": "me",
        "iso3": "mne",
        "uid": 499,
        "population": 628062,
        "lat": 42.708678,
        "long": 19.37439,
        "country": "Montenegro",
        "wom_map": "Montenegro"
    },
    {
        "name_en": "Montserrat",
        "name_el": "Μοντσερράτ",
        "iso2": "ms",
        "iso3": "msr",
        "uid": 500,
        "population": 4999,
        "lat": 16.742498,
        "long": -62.187366,
        "country": "Montserrat",
        "wom_map": "Montserrat"
    },
    {
        "name_en": "Morocco",
        "name_el": "Μαρόκο",
        "iso2": "ma",
        "iso3": "mar",
        "uid": 504,
        "population": 36910558,
        "lat": 31.7917,
        "long": -7.0926,
        "country": "Morocco",
        "wom_map": "Morocco"
    },
    {
        "name_en": "Mozambique",
        "name_el": "Μοζαμβίκη",
        "iso2": "mz",
        "iso3": "moz",
        "uid": 508,
        "population": 31255435,
        "lat": -18.665695,
        "long": 35.529562,
        "country": "Mozambique",
        "wom_map": "Mozambique"
    },
    {
        "name_en": "Myanmar",
        "name_el": "Μιανμάρ",
        "iso2": "mm",
        "iso3": "mmr",
        "uid": 104,
        "population": 54409794,
        "lat": 21.9162,
        "long": 95.956,
        "country": "Burma",
        "wom_map": "Myanmar"
    },
    {
        "name_en": "Namibia",
        "name_el": "Ναμίμπια",
        "iso2": "na",
        "iso3": "nam",
        "uid": 516,
        "population": 2540916,
        "lat": -22.9576,
        "long": 18.4904,
        "country": "Namibia",
        "wom_map": "Namibia"
    },
    {
        "name_en": "Nauru",
        "name_el": "Ναουρού",
        "iso2": "nr",
        "iso3": "nru",
        "uid": 520,
        "population": 0,
        "lat": 0,
        "long": 0,
        "country": "",
        "wom_map": ""
    },
    {
        "name_en": "Nepal",
        "name_el": "Νεπάλ",
        "iso2": "np",
        "iso3": "npl",
        "uid": 524,
        "population": 29136808,
        "lat": 28.1667,
        "long": 84.25,
        "country": "Nepal",
        "wom_map": "Nepal"
    },
    {
        "name_en": "Netherlands",
        "iso2": "nl",
        "iso3": "nld",
        "uid": 528,
        "population": 17134873,
        "lat": 52.1326,
        "long": 5.2913,
        "country": "Netherlands",
        "wom_map": "Netherlands"
    },
    {
        "name_en": "New Caledonia",
        "iso2": "nc",
        "iso3": "ncl",
        "uid": 540,
        "population": 285491,
        "lat": -20.904305,
        "long": 165.618042,
        "country": "New Caledonia",
        "wom_map": "New Caledonia"
    },
    {
        "name_en": "New Zealand",
        "iso2": "nz",
        "iso3": "nzl",
        "uid": 554,
        "population": 4822233,
        "lat": -40.9006,
        "long": 174.886,
        "country": "New Zealand",
        "wom_map": "New Zealand"
    },
    {
        "name_en": "Nicaragua",
        "iso2": "ni",
        "iso3": "nic",
        "uid": 558,
        "population": 6624554,
        "lat": 12.865416,
        "long": -85.207229,
        "country": "Nicaragua",
        "wom_map": "Nicaragua"
    },
    {
        "name_en": "Niger",
        "name_el": "Νίγηρας",
        "iso2": "ne",
        "iso3": "ner",
        "uid": 562,
        "population": 24206636,
        "lat": 17.607789,
        "long": 8.081666,
        "country": "Niger",
        "wom_map": "Niger"
    },
    {
        "name_en": "Nigeria",
        "name_el": "Νιγηρία",
        "iso2": "ng",
        "iso3": "nga",
        "uid": 566,
        "population": 206139587,
        "lat": 9.082,
        "long": 8.6753,
        "country": "Nigeria",
        "wom_map": "Nigeria"
    },
    {
        "name_en": "Niue",
        "name_el": "Νιούε",
        "iso2": "nu",
        "iso3": "niu",
        "uid": 570,
        "population": 0,
        "lat": 0,
        "long": 0,
        "country": "",
        "wom_map": ""
    },
    {
        "name_en": "Norfolk Island",
        "name_el": "Νησί Νόρφολκ",
        "iso2": "nf",
        "iso3": "nfk",
        "uid": 574,
        "population": 0,
        "lat": 0,
        "long": 0,
        "country": "",
        "wom_map": ""
    },
    {
        "name_en": "North Macedonia",
        "name_el": "Βόρεια Μακεδονία",
        "iso2": "mk",
        "iso3": "mkd",
        "uid": 807,
        "population": 2083380,
        "lat": 41.6086,
        "long": 21.7453,
        "country": "North Macedonia",
        "wom_map": "North Macedonia"
    },
    {
        "name_en": "Northern Mariana Islands",
        "name_el": "Βόρειες Μαριάνες Νήσοι",
        "iso2": "mp",
        "iso3": "mnp",
        "uid": 580,
        "population": 55144,
        "lat": 15.0979,
        "long": 145.6739,
        "country": "Northern Mariana Islands",
        "wom_map": ""
    },
    {
        "name_en": "Norway",
        "name_el": "Νορβηγία",
        "iso2": "no",
        "iso3": "nor",
        "uid": 578,
        "population": 5421242,
        "lat": 60.472,
        "long": 8.4689,
        "country": "Norway",
        "wom_map": "Norway"
    },
    {
        "name_en": "Oman",
        "name_el": "Ομάν",
        "iso2": "om",
        "iso3": "omn",
        "uid": 512,
        "population": 5106622,
        "lat": 21.512583,
        "long": 55.923255,
        "country": "Oman",
        "wom_map": "Oman"
    },
    {
        "name_en": "Pakistan",
        "name_el": "Πακιστάν",
        "iso2": "pk",
        "iso3": "pak",
        "uid": 586,
        "population": 220892331,
        "lat": 30.3753,
        "long": 69.3451,
        "country": "Pakistan",
        "wom_map": "Pakistan"
    },
    {
        "name_en": "Palau",
        "name_el": "Παλάου",
        "iso2": "pw",
        "iso3": "plw",
        "uid": 585,
        "population": 0,
        "lat": 0,
        "long": 0,
        "country": "",
        "wom_map": ""
    },
    {
        "name_en": "Palestine, State of",
        "name_el": "Δυτική Όχθη",
        "iso2": "ps",
        "iso3": "pse",
        "uid": 275,
        "population": 5101416,
        "lat": 31.9522,
        "long": 35.2332,
        "country": "West Bank and Gaza",
        "wom_map": "Palestine"
    },
    {
        "name_en": "Panama",
        "name_el": "Παναμάς",
        "iso2": "pa",
        "iso3": "pan",
        "uid": 591,
        "population": 4314768,
        "lat": 8.538,
        "long": -80.7821,
        "country": "Panama",
        "wom_map": "Panama"
    },
    {
        "name_en": "Papua New Guinea",
        "name_el": "Παπούα Νέα Γουινέα",
        "iso2": "pg",
        "iso3": "png",
        "uid": 598,
        "population": 8947027,
        "lat": -6.314993,
        "long": 143.95555,
        "country": "Papua New Guinea",
        "wom_map": "Papua New Guinea"
    },
    {
        "name_en": "Paraguay",
        "name_el": "Παραγουάη",
        "iso2": "py",
        "iso3": "pry",
        "uid": 600,
        "population": 7132530,
        "lat": -23.4425,
        "long": -58.4438,
        "country": "Paraguay",
        "wom_map": "Paraguay"
    },
    {
        "name_en": "Peru",
        "name_el": "Περού",
        "iso2": "pe",
        "iso3": "per",
        "uid": 604,
        "population": 32971846,
        "lat": -9.19,
        "long": -75.0152,
        "country": "Peru",
        "wom_map": "Peru"
    },
    {
        "name_en": "Philippines",
        "name_el": "Φιλιππίνες",
        "iso2": "ph",
        "iso3": "phl",
        "uid": 608,
        "population": 109581085,
        "lat": 12.879721,
        "long": 121.774017,
        "country": "Philippines",
        "wom_map": "Philippines"
    },
    {
        "name_en": "Pitcairn",
        "name_el": "Νησιά Πίτκερν",
        "iso2": "pn",
        "iso3": "pcn",
        "uid": 612,
        "population": 0,
        "lat": 0,
        "long": 0,
        "country": "",
        "wom_map": ""
    },
    {
        "name_en": "Poland",
        "name_el": "Πολωνία",
        "iso2": "pl",
        "iso3": "pol",
        "uid": 616,
        "population": 37846605,
        "lat": 51.9194,
        "long": 19.1451,
        "country": "Poland",
        "wom_map": "Poland"
    },
    {
        "name_en": "Portugal",
        "name_el": "Πορτογαλία",
        "iso2": "pt",
        "iso3": "prt",
        "uid": 620,
        "population": 10196707,
        "lat": 39.3999,
        "long": -8.2245,
        "country": "Portugal",
        "wom_map": "Portugal"
    },
    {
        "name_en": "Puerto Rico",
        "name_el": "Πουέρτο Ρίκο",
        "iso2": "pr",
        "iso3": "pri",
        "uid": 630,
        "population": 2933408,
        "lat": 18.2208,
        "long": -66.5901,
        "country": "Puerto Rico",
        "wom_map": ""
    },
    {
        "name_en": "Qatar",
        "name_el": "Κατάρ",
        "iso2": "qa",
        "iso3": "qat",
        "uid": 634,
        "population": 2881060,
        "lat": 25.3548,
        "long": 51.1839,
        "country": "Qatar",
        "wom_map": "Qatar"
    },
    {
        "name_en": "Réunion",
        "name_el": "Ρεϊνιόν",
        "iso2": "re",
        "iso3": "reu",
        "uid": 638,
        "population": 895308,
        "lat": -21.1151,
        "long": 55.5364,
        "country": "Reunion",
        "wom_map": "Réunion"
    },
    {
        "name_en": "Romania",
        "name_el": "Ρουμανία",
        "iso2": "ro",
        "iso3": "rou",
        "uid": 642,
        "population": 19237682,
        "lat": 45.9432,
        "long": 24.9668,
        "country": "Romania",
        "wom_map": "Romania"
    },
    {
        "name_en": "Russian Federation",
        "name_el": "Ρωσία",
        "iso2": "ru",
        "iso3": "rus",
        "uid": 643,
        "population": 145934460,
        "lat": 61.52401,
        "long": 105.318756,
        "country": "Russia",
        "wom_map": "Russia"
    },
    {
        "name_en": "Rwanda",
        "name_el": "Ρουάντα",
        "iso2": "rw",
        "iso3": "rwa",
        "uid": 646,
        "population": 12952209,
        "lat": -1.9403,
        "long": 29.8739,
        "country": "Rwanda",
        "wom_map": "Rwanda"
    },
    {
        "name_en": "Saint Barthélemy",
        "name_el": "Άγιος Βαρθολομαίος",
        "iso2": "bl",
        "iso3": "blm",
        "uid": 652,
        "population": 9885,
        "lat": 17.9,
        "long": -62.8333,
        "country": "Saint Barthelemy",
        "wom_map": "St. Barth"
    },
    {
        "name_en": "Saint Helena, Ascension and Tristan da Cunha",
        "name_el": "Νήσος Αγίας Ελένης",
        "iso2": "sh",
        "iso3": "shn",
        "uid": 654,
        "population": 0,
        "lat": 0,
        "long": 0,
        "country": "",
        "wom_map": ""
    },
    {
        "name_en": "Saint Kitts and Nevis",
        "name_el": "Άγιος Χριστόφορος και Νέβις",
        "iso2": "kn",
        "iso3": "kna",
        "uid": 659,
        "population": 53192,
        "lat": 17.357822,
        "long": -62.782998,
        "country": "Saint Kitts and Nevis",
        "wom_map": "Saint Kitts and Nevis"
    },
    {
        "name_en": "Saint Lucia",
        "name_el": "Αγία Λουκία",
        "iso2": "lc",
        "iso3": "lca",
        "uid": 662,
        "population": 183629,
        "lat": 13.9094,
        "long": -60.9789,
        "country": "Saint Lucia",
        "wom_map": "Saint Lucia"
    },
    {
        "name_en": "Saint Martin (French part)",
        "name_el": "Άγιος Μαρτίνος (Γαλλία)",
        "iso2": "mf",
        "iso3": "maf",
        "uid": 663,
        "population": 38659,
        "lat": 18.0708,
        "long": -63.0501,
        "country": "St Martin",
        "wom_map": "Saint Martin"
    },
    {
        "name_en": "Saint Pierre and Miquelon",
        "name_el": "Σαιν Πιερ και Μικελόν",
        "iso2": "pm",
        "iso3": "spm",
        "uid": 666,
        "population": 5795,
        "lat": 46.8852,
        "long": -56.3159,
        "country": "Saint Pierre and Miquelon",
        "wom_map": "Saint Pierre Miquelon"
    },
    {
        "name_en": "Saint Vincent and the Grenadines",
        "name_el": "Άγιος Βικέντιος και Γρεναδίνες",
        "iso2": "vc",
        "iso3": "vct",
        "uid": 670,
        "population": 110947,
        "lat": 12.9843,
        "long": -61.2872,
        "country": "Saint Vincent and the Grenadines",
        "wom_map": "St. Vincent Grenadines"
    },
    {
        "name_en": "Samoa",
        "name_el": "Σαμόα",
        "iso2": "ws",
        "iso3": "wsm",
        "uid": 882,
        "population": 0,
        "lat": 0,
        "long": 0,
        "country": "",
        "wom_map": ""
    },
    {
        "name_en": "San Marino",
        "name_el": "Άγιος Μαρίνος",
        "iso2": "sm",
        "iso3": "smr",
        "uid": 674,
        "population": 33938,
        "lat": 43.9424,
        "long": 12.4578,
        "country": "San Marino",
        "wom_map": "San Marino"
    },
    {
        "name_en": "Sao Tome and Principe",
        "name_el": "Σάο Τομέ και Πρίνσιπε",
        "iso2": "st",
        "iso3": "stp",
        "uid": 678,
        "population": 219161,
        "lat": 0.1864,
        "long": 6.6131,
        "country": "Sao Tome and Principe",
        "wom_map": "Sao Tome and Principe"
    },
    {
        "name_en": "Saudi Arabia",
        "name_el": "Σαουδική Αραβία",
        "iso2": "sa",
        "iso3": "sau",
        "uid": 682,
        "population": 34813867,
        "lat": 23.885942,
        "long": 45.079162,
        "country": "Saudi Arabia",
        "wom_map": "Saudi Arabia"
    },
    {
        "name_en": "Senegal",
        "name_el": "Σενεγάλη",
        "iso2": "sn",
        "iso3": "sen",
        "uid": 686,
        "population": 16743930,
        "lat": 14.4974,
        "long": -14.4524,
        "country": "Senegal",
        "wom_map": "Senegal"
    },
    {
        "name_en": "Serbia",
        "name_el": "Σερβία",
        "iso2": "rs",
        "iso3": "srb",
        "uid": 688,
        "population": 8737370,
        "lat": 44.0165,
        "long": 21.0059,
        "country": "Serbia",
        "wom_map": "Serbia"
    },
    {
        "name_en": "Seychelles",
        "name_el": "Σεϋχέλλες",
        "iso2": "sc",
        "iso3": "syc",
        "uid": 690,
        "population": 98340,
        "lat": -4.6796,
        "long": 55.492,
        "country": "Seychelles",
        "wom_map": "Seychelles"
    },
    {
        "name_en": "Sierra Leone",
        "name_el": "Σιέρα Λεόνε",
        "iso2": "sl",
        "iso3": "sle",
        "uid": 694,
        "population": 7976985,
        "lat": 8.460555,
        "long": -11.779889,
        "country": "Sierra Leone",
        "wom_map": "Sierra Leone"
    },
    {
        "name_en": "Singapore",
        "name_el": "Σιγκαπούρη",
        "iso2": "sg",
        "iso3": "sgp",
        "uid": 702,
        "population": 5850343,
        "lat": 1.2833,
        "long": 103.8333,
        "country": "Singapore",
        "wom_map": "Singapore"
    },
    {
        "name_en": "Sint Maarten (Dutch part)",
        "name_el": "Άγιος Μαρτίνος (Ολλανδία)",
        "iso2": "sx",
        "iso3": "sxm",
        "uid": 534,
        "population": 42882,
        "lat": 18.0425,
        "long": -63.0548,
        "country": "Sint Maarten",
        "wom_map": "Sint Maarten"
    },
    {
        "name_en": "Slovakia",
        "name_el": "Σλοβακία",
        "iso2": "sk",
        "iso3": "svk",
        "uid": 703,
        "population": 5459643,
        "lat": 48.669,
        "long": 19.699,
        "country": "Slovakia",
        "wom_map": "Slovakia"
    },
    {
        "name_en": "Slovenia",
        "name_el": "Σλοβενία",
        "iso2": "si",
        "iso3": "svn",
        "uid": 705,
        "population": 2078932,
        "lat": 46.1512,
        "long": 14.9955,
        "country": "Slovenia",
        "wom_map": "Slovenia"
    },
    {
        "name_en": "Solomon Islands",
        "name_el": "Νήσοι Σολομώντα",
        "iso2": "sb",
        "iso3": "slb",
        "uid": 90,
        "population": 652858,
        "lat": -9.6457,
        "long": 160.1562,
        "country": "Solomon Islands",
        "wom_map": "Solomon Islands"
    },
    {
        "name_en": "Somalia",
        "name_el": "Σομαλία",
        "iso2": "so",
        "iso3": "som",
        "uid": 706,
        "population": 15893219,
        "lat": 5.152149,
        "long": 46.199616,
        "country": "Somalia",
        "wom_map": "Somalia"
    },
    {
        "name_en": "South Africa",
        "name_el": "Νότια Αφρική",
        "iso2": "za",
        "iso3": "zaf",
        "uid": 710,
        "population": 59308690,
        "lat": -30.5595,
        "long": 22.9375,
        "country": "South Africa",
        "wom_map": "South Africa"
    },
    {
        "name_en": "South Georgia and the South Sandwich Islands",
        "name_el": "Νήσοι Νότια Γεωργία και Νότιες Σάντουιτς",
        "iso2": "gs",
        "iso3": "sgs",
        "uid": 239,
        "population": 0,
        "lat": 0,
        "long": 0,
        "country": "",
        "wom_map": ""
    },
    {
        "name_en": "South Sudan",
        "name_el": "Νότιο Σουδάν",
        "iso2": "ss",
        "iso3": "ssd",
        "uid": 728,
        "population": 11193729,
        "lat": 6.877,
        "long": 31.307,
        "country": "South Sudan",
        "wom_map": "South Sudan"
    },
    {
        "name_en": "Spain",
        "name_el": "Ισπανία",
        "iso2": "es",
        "iso3": "esp",
        "uid": 724,
        "population": 46754783,
        "lat": 40.463667,
        "long": -3.74922,
        "country": "Spain",
        "wom_map": "Spain"
    },
    {
        "name_en": "Sri Lanka",
        "name_el": "Σρι Λάνκα",
        "iso2": "lk",
        "iso3": "lka",
        "uid": 144,
        "population": 21413250,
        "lat": 7.873054,
        "long": 80.771797,
        "country": "Sri Lanka",
        "wom_map": "Sri Lanka"
    },
    {
        "name_en": "Sudan",
        "name_el": "Σουδάν",
        "iso2": "sd",
        "iso3": "sdn",
        "uid": 729,
        "population": 43849269,
        "lat": 12.8628,
        "long": 30.2176,
        "country": "Sudan",
        "wom_map": "Sudan"
    },
    {
        "name_en": "Suriname",
        "name_el": "Σουρινάμ",
        "iso2": "sr",
        "iso3": "sur",
        "uid": 740,
        "population": 586634,
        "lat": 3.9193,
        "long": -56.0278,
        "country": "Suriname",
        "wom_map": "Suriname"
    },
    {
        "name_en": "Svalbard and Jan Mayen",
        "name_el": "Σβάλμπαρντ",
        "iso2": "sj",
        "iso3": "sjm",
        "uid": 744,
        "population": 0,
        "lat": 0,
        "long": 0,
        "country": "",
        "wom_map": ""
    },
    {
        "name_en": "Sweden",
        "name_el": "Σουηδία",
        "iso2": "se",
        "iso3": "swe",
        "uid": 752,
        "population": 10099270,
        "lat": 60.128161,
        "long": 18.643501,
        "country": "Sweden",
        "wom_map": "Sweden"
    },
    {
        "name_en": "Switzerland",
        "name_el": "Ελβετία",
        "iso2": "ch",
        "iso3": "che",
        "uid": 756,
        "population": 8654618,
        "lat": 46.8182,
        "long": 8.2275,
        "country": "Switzerland",
        "wom_map": "Switzerland"
    },
    {
        "name_en": "Syrian Arab Republic",
        "name_el": "Συρία",
        "iso2": "sy",
        "iso3": "syr",
        "uid": 760,
        "population": 17500657,
        "lat": 34.802075,
        "long": 38.996815,
        "country": "Syria",
        "wom_map": "Syria"
    },
    {
        "name_en": "Taiwan",
        "name_el": "Ταϊβάν",
        "iso2": "tw",
        "iso3": "twn",
        "uid": 158,
        "population": 23816775,
        "lat": 23.7,
        "long": 121,
        "country": "Taiwan*",
        "wom_map": "Taiwan"
    },
    {
        "name_en": "Tajikistan",
        "name_el": "Τατζικιστάν",
        "iso2": "tj",
        "iso3": "tjk",
        "uid": 762,
        "population": 9537642,
        "lat": 38.861,
        "long": 71.2761,
        "country": "Tajikistan",
        "wom_map": "Tajikistan"
    },
    {
        "name_en": "Tanzania, United Republic of",
        "name_el": "Τανζανία",
        "iso2": "tz",
        "iso3": "tza",
        "uid": 834,
        "population": 59734213,
        "lat": -6.369028,
        "long": 34.888822,
        "country": "Tanzania",
        "wom_map": "Tanzania"
    },
    {
        "name_en": "Thailand",
        "name_el": "Ταϊλάνδη",
        "iso2": "th",
        "iso3": "tha",
        "uid": 764,
        "population": 69799978,
        "lat": 15.870032,
        "long": 100.992541,
        "country": "Thailand",
        "wom_map": "Thailand"
    },
    {
        "name_en": "Timor-Leste",
        "name_el": "Ανατολικό Τιμόρ",
        "iso2": "tl",
        "iso3": "tls",
        "uid": 626,
        "population": 1318442,
        "lat": -8.874217,
        "long": 125.727539,
        "country": "Timor-Leste",
        "wom_map": "Timor-Leste"
    },
    {
        "name_en": "Togo",
        "name_el": "Τόγκο",
        "iso2": "tg",
        "iso3": "tgo",
        "uid": 768,
        "population": 8278737,
        "lat": 8.6195,
        "long": 0.8248,
        "country": "Togo",
        "wom_map": "Togo"
    },
    {
        "name_en": "Tokelau",
        "name_el": "Τοκελάου",
        "iso2": "tk",
        "iso3": "tkl",
        "uid": 772,
        "population": 0,
        "lat": 0,
        "long": 0,
        "country": "",
        "wom_map": ""
    },
    {
        "name_en": "Tonga",
        "name_el": "Τόγκα",
        "iso2": "to",
        "iso3": "ton",
        "uid": 776,
        "population": 0,
        "lat": 0,
        "long": 0,
        "country": "",
        "wom_map": ""
    },
    {
        "name_en": "Trinidad and Tobago",
        "name_el": "Τρινιντάντ και Τομπάγκο",
        "iso2": "tt",
        "iso3": "tto",
        "uid": 780,
        "population": 1399491,
        "lat": 10.6918,
        "long": -61.2225,
        "country": "Trinidad and Tobago",
        "wom_map": "Trinidad and Tobago"
    },
    {
        "name_en": "Tunisia",
        "name_el": "Τυνησία",
        "iso2": "tn",
        "iso3": "tun",
        "uid": 788,
        "population": 11818618,
        "lat": 33.886917,
        "long": 9.537499,
        "country": "Tunisia",
        "wom_map": "Tunisia"
    },
    {
        "name_en": "Turkey",
        "name_el": "Τουρκία",
        "iso2": "tr",
        "iso3": "tur",
        "uid": 792,
        "population": 84339067,
        "lat": 38.9637,
        "long": 35.2433,
        "country": "Turkey",
        "wom_map": "Turkey"
    },
    {
        "name_en": "Turkmenistan",
        "name_el": "Τουρκμενιστάν",
        "iso2": "tm",
        "iso3": "tkm",
        "uid": 795,
        "population": 0,
        "lat": 0,
        "long": 0,
        "country": "",
        "wom_map": ""
    },
    {
        "name_en": "Turks and Caicos Islands",
        "name_el": "Τερκς και Κέικος",
        "iso2": "tc",
        "iso3": "tca",
        "uid": 796,
        "population": 38718,
        "lat": 21.694,
        "long": -71.7979,
        "country": "Turks and Caicos Islands",
        "wom_map": "Turks and Caicos"
    },
    {
        "name_en": "Tuvalu",
        "name_el": "Τουβαλού",
        "iso2": "tv",
        "iso3": "tuv",
        "uid": 798,
        "population": 0,
        "lat": 0,
        "long": 0,
        "country": "",
        "wom_map": ""
    },
    {
        "name_en": "Uganda",
        "name_el": "Ουγκάντα",
        "iso2": "ug",
        "iso3": "uga",
        "uid": 800,
        "population": 45741000,
        "lat": 1.373333,
        "long": 32.290275,
        "country": "Uganda",
        "wom_map": "Uganda"
    },
    {
        "name_en": "Ukraine",
        "name_el": "Ουκρανία",
        "iso2": "ua",
        "iso3": "ukr",
        "uid": 804,
        "population": 43733759,
        "lat": 48.3794,
        "long": 31.1656,
        "country": "Ukraine",
        "wom_map": "Ukraine"
    },
    {
        "name_en": "United Arab Emirates",
        "name_el": "Ηνωμένα Αραβικά Εμιράτα",
        "iso2": "ae",
        "iso3": "are",
        "uid": 784,
        "population": 9890400,
        "lat": 23.424076,
        "long": 53.847818,
        "country": "United Arab Emirates",
        "wom_map": "UAE"
    },
    {
        "name_en": "United Kingdom of Great Britain and Northern Ireland",
        "name_el": "Ηνωμένο Βασίλειο",
        "iso2": "gb",
        "iso3": "gbr",
        "uid": 826,
        "population": 67886004,
        "lat": 55.3781,
        "long": -3.436,
        "country": "United Kingdom",
        "wom_map": "UK"
    },
    {
        "name_en": "United States of America",
        "name_el": "Ηνωμένες Πολιτείες Αμερικής",
        "iso2": "us",
        "iso3": "usa",
        "uid": 840,
        "population": 329466283,
        "lat": 40,
        "long": -100,
        "country": "US",
        "wom_map": "USA"
    },
    {
        "name_en": "United States Minor Outlying Islands",
        "iso2": "um",
        "iso3": "umi",
        "uid": 581,
        "population": 0,
        "lat": 0,
        "long": 0,
        "country": "",
        "wom_map": ""
    },
    {
        "name_en": "Uruguay",
        "iso2": "uy",
        "iso3": "ury",
        "uid": 858,
        "population": 3473727,
        "lat": -32.5228,
        "long": -55.7658,
        "country": "Uruguay",
        "wom_map": "Uruguay"
    },
    {
        "name_en": "Uzbekistan",
        "iso2": "uz",
        "iso3": "uzb",
        "uid": 860,
        "population": 33469199,
        "lat": 41.377491,
        "long": 64.585262,
        "country": "Uzbekistan",
        "wom_map": "Uzbekistan"
    },
    {
        "name_en": "Vanuatu",
        "iso2": "vu",
        "iso3": "vut",
        "uid": 548,
        "population": 0,
        "lat": 0,
        "long": 0,
        "country": "",
        "wom_map": ""
    },
    {
        "name_en": "Venezuela (Bolivarian Republic of)",
        "iso2": "ve",
        "iso3": "ven",
        "uid": 862,
        "population": 28435943,
        "lat": 6.4238,
        "long": -66.5897,
        "country": "Venezuela",
        "wom_map": "Venezuela"
    },
    {
        "name_en": "Viet Nam",
        "iso2": "vn",
        "iso3": "vnm",
        "uid": 704,
        "population": 97338583,
        "lat": 14.058324,
        "long": 108.277199,
        "country": "Vietnam",
        "wom_map": "Vietnam"
    },
    {
        "name_en": "Virgin Islands (British)",
        "iso2": "vg",
        "iso3": "vgb",
        "uid": 92,
        "population": 30237,
        "lat": 18.4207,
        "long": -64.64,
        "country": "British Virgin Islands"
    },
    {
        "name_en": "Virgin Islands (U.S.)",
        "iso2": "vi",
        "iso3": "vir",
        "uid": 850,
        "population": 107268,
        "lat": 18.3358,
        "long": -64.8963,
        "country": "Virgin Islands"
    },
    {
        "name_en": "Wallis and Futuna",
        "iso2": "wf",
        "iso3": "wlf",
        "uid": 876,
        "population": 0,
        "lat": 0,
        "long": 0,
        "country": "Wallis and Futuna"
    },
    {
        "name_en": "Western Sahara",
        "iso2": "eh",
        "iso3": "esh",
        "uid": 732,
        "population": 597330,
        "lat": 24.2155,
        "long": -12.8858,
        "country": "Western Sahara"
    },
    {
        "name_en": "Yemen",
        "iso2": "ye",
        "iso3": "yem",
        "uid": 887,
        "population": 29825968,
        "lat": 15.552727,
        "long": 48.516388,
        "country": "Yemen"
    },
    {
        "name_en": "Zambia",
        "iso2": "zm",
        "iso3": "zmb",
        "uid": 894,
        "population": 18383956,
        "lat": -13.133897,
        "long": 27.849332,
        "country": "Zambia"
    },
    {
        "name_en": "Zimbabwe",
        "iso2": "zw",
        "iso3": "zwe",
        "uid": 716,
        "population": 14862927,
        "lat": -19.015438,
        "long": 29.154857,
        "country": "Zimbabwe"
    },
    {
        "name_en": "Micronesia",
        "iso2": "fm",
        "iso3": "fsm",
        "uid": 583,
        "population": 113815,
        "lat": 7.4256,
        "long": 150.5508,
        "country": "Micronesia"
    }
]